[
  {"tipo":"Gerencia","nome":"Gerência Vila Isabel - Posto)","local":"Av Presidente Castelo Branco s/nº - Maracanã - Cep.:20271-130    ","latitude":-22.910359,"longitude":-43.232814},
  {"tipo":"Gerencia","nome":"Gerência Vila Isabel - Parque","local":"Rua Torres Homem, 890 - Vila Isabel - cep.:  20551-075","latitude":-22.914642,"longitude":-43.251401},
  {"tipo":"Gerencia","nome":"Gerência Vigário Geral","local":"Rua Fernandes da Cunha, nº 683 - Vigário Geral - CEP.:  21241-300","latitude":-22.811114,"longitude":-43.308974},
  {"tipo":"Gerencia","nome":"Gerência Tijuca - Parque","local":"Rua Doutor Renato Rocco, nº 400 - Tijuca - Cep.: 20521-080  ","latitude":-22.927120,"longitude":-43.229058},
  {"tipo":"Gerencia","nome":"Gerência Tijuca - (Posto)","local":"Rua Ceara s/nº - Praça Da Bandeira Cep.:20270-100           ","latitude":-22.897983,"longitude":-43.577762},
  {"tipo":"Gerencia","nome":"Gerência Senador Vasconcelos","local":"Avenida Maria Teresa , s/nº - Campo Grande - CEP.: 23050-160","latitude":-22.907207,"longitude":-43.566015},
  {"tipo":"Gerencia","nome":"Gerência São Cristóvão","local":"Rua Catalão s/nº - São Cristovão, Cep.: 20910-130","latitude":-22.901708,"longitude":-43.227468},
  {"tipo":"Gerencia","nome":"Gerência Santa Cruz","local":"Av. Isabel, 388- Santa Cruz - Cep.: 23575-340","latitude":-22.925441,"longitude":-43.690140},
  {"tipo":"Gerencia","nome":"Gerência Rio Comprido","local":"Av. Paulo de Frontin, nº 448 - Rio Comprido - Cep.:20261-242","latitude":-22.922780,"longitude":-43.209858},
  {"tipo":"Gerencia","nome":"Gerência Recreio - Parque","local":"Avenida Genaro de Carvalho, s/n° - Cep.: 22795-077 - Recreio Dos Bandeirantes","latitude":-23.016893,"longitude":-43.459237},
  {"tipo":"Gerencia","nome":"Gerência Realengo - Posto","local":"Avenida Alberico Dinis   s/nº - Cep.: 21741-110 - Jardim Sulacap","latitude":-22.886457,"longitude":-43.392776},
  {"tipo":"Gerencia","nome":"Gerência Realengo","local":"Rua Bernardo de Vasconcelos, Nº 1746 - Realengo - Cep.: 21715-251","latitude":-22.875587,"longitude":-43.38215},
  {"tipo":"Gerencia","nome":"Gerência Ramos - Escola Limpa","local":"Rua Diomedes Trota , 259 - Ramos - Cep.: 21060-010","latitude":-22.854653,"longitude":-43.264654},
  {"tipo":"Gerencia","nome":"Gerência Portuária","local":"Rua Waldemar Dutra , N° 67 - Santo Cristo - Cep.:20220-780","latitude":-22.900845,"longitude":-43.200219},
  {"tipo":"Gerencia","nome":"Gerência Piedade","local":"Rua Manoel Vitorino, 140- Encantado,CEP.: 20740-280","latitude":-22.894823,"longitude":-43.303723},
  {"tipo":"Gerencia","nome":"Gerência Penha - Parque","local":"Rua Mafra, 50- Penha - cep .: 21011-640","latitude":-22.829681,"longitude":-43.277927},
  {"tipo":"Gerencia","nome":"Gerência Pedra de Guaratiba","local":"Rua Belchior da Fonseca  Nº 167 - CEP.:23027-260  - Pedra de Guaratiba","latitude":-22.999969,"longitude":-43.641977},
  {"tipo":"Gerencia","nome":"Gerência Méier - Escola Limpa","local":"Rua Cuba, 391- Penha - CEP 21020-160","latitude":-22.829117,"longitude":-43.77435},
  {"tipo":"Gerencia","nome":"Gerência Méier","local":"Rua Rio Grande Do Sul, nº 26 - Meier, CEP.: 20775-100","latitude":-22.898308,"longitude":-43.276041},
  {"tipo":"Gerencia","nome":"Gerência Marechal Hermes - Escola Limpa","local":"Av. General Osvaldo Cordeiro De Farias, 326 - Marechal Hermes - Cep.:21610-480","latitude":-22864887,"longitude":-43373558},
  {"tipo":"Gerencia","nome":"Gerência Madureira - Parque","local":"Rua João Pereira, nº 63 - Madureira - CEP.: 21350-250","latitude":-22.874986,"longitude":-43.334605},
  {"tipo":"Gerencia","nome":"Gerência Leblon - Parque","local":"Av. Epitácio Pessoa , s/nº - Cep.:22410-090","latitude":-22.973825,"longitude":-43.202553},
  {"tipo":"Gerencia","nome":"Gerência Jacarepaguá","local":"Estrada do Covanca, 320 - Cep.:  22735-020 - Tanque","latitude":-22.918787,"longitude":-43.358166},
  {"tipo":"Gerencia","nome":"Gerência Irajá - Escola Limpa","local":"Rua Monsenhor Félix, 512 - Irajá - CEP.: 21235-110","latitude":-22.846626,"longitude":-43.323903},
  {"tipo":"Gerencia","nome":"Gerência Irajá","local":"Rua Monsenhor Félix, 512 - Irajá - CEP.: 21235-110","latitude":-22.844816,"longitude":-43.323465},
  {"tipo":"Gerencia","nome":"Gerência Inhaúma  - Escola Limpa","local":"Av. Dom Hélder Câmara, s/nº (altura do nº 3443) - Maria das Graças  - Cep.:21050-454","latitude":-22881237,"longitude":-43273343},
  {"tipo":"Gerencia","nome":"Gerência Ilha do Governador - Posto","local":"Av dos Magistérios nº 451  - Moneró ","latitude":-22.911014,"longitude":-43.209373},
  {"tipo":"Gerencia","nome":"Gerência Ilha do Governador - Parque","local":"Rua Formosa do Zumbi, 90 - Zumbi  - Cep.:21930-220","latitude":-22819540,"longitude":-43176728},
  {"tipo":"Gerencia","nome":"Gerência Freguesia - Parque","local":"Rua Francisco Acquarone, 60 - Cep.: 22755-170 - Freguesia","latitude":-22.913543,"longitude":-43.213975},
  {"tipo":"Gerencia","nome":"Gerência Fazenda Botafogo - Escola Limpa","local":"Rua Pedro Jório, nº 525 - Fazenda Botafogo - CEP.: 21530-030","latitude":-22.825953,"longitude":-43.355373},
  {"tipo":"Gerencia","nome":"Gerência Ecoparque do Caju","local":"Rua Carlos Seidl nº 1388 - Caju, Cep.:22280-005","latitude":-22.880132,"longitude":-43.226508},
  {"tipo":"Gerencia","nome":"Gerência de Transferência de Resíduos","local":"Rua Américo de Souza Braga , 647 - Vargem Pequena, CEP.: 22783-385","latitude":-22.985826,"longitude":-43.452727},
  {"tipo":"Gerencia","nome":"Gerência de Serviços Extraordinários e Pronto Emprego - Parque","local":"Avenida Adauto Botelho s/n° - Colônia Juliano Moreira - Jacarepaguá Cep.:22713-550","latitude":-22.932930,"longitude":-43.393177},
  {"tipo":"Gerencia","nome":"Gerência de Serviços Extraordinários e Pronto Emprego","local":"Rua Bela, 1.103- São Cristóvão, Cep.:20930-380","latitude":-22.886937,"longitude":-43.226414},
  {"tipo":"Gerencia","nome":"Gerência de Serviços Extraordinários e Pronto Emprego","local":"Estrada Do Magarça, 01- Campo Grande, CEP.: 23035-380","latitude":-22.948213,"longitude":-43.602457},
  {"tipo":"Gerencia","nome":"Gerência de Serviços e Vias Especiais","local":"Av Brasil nº 36550 - Vila Kennedy - cep.: 23078-001","latitude":-22.854672,"longitude":-43.490421},
  {"tipo":"Gerencia","nome":"Gerência de Manejo Arbóreo Sul","local":"Av Padre Leonel Franca S/Nº - Gavea, CEP.: 22451-000","latitude":-22.978449,"longitude":-43.226837},
  {"tipo":"Gerencia","nome":"Gerência de Manejo Arbóreo Barra","local":"Avenida Afonso de Taunay 225 - Barra da Tijuca - Cep .:22621-310","latitude":-23.009670,"longitude":-43.312718},
  {"tipo":"Gerencia","nome":"Gerência de Fabricação Industrial","local":"Av. Manuel Caldeira de Alvarenga, 1.215 - Cep.: 23070-201 - Campo Grande","latitude":-22.901961,"longitude":-43.573143},
  {"tipo":"Gerencia","nome":"Gerência de Aterros","local":"Estrada Do Gericino s/nº Bangu (CATIRI) Cep.:21853-000","latitude":-22.852835,"longitude":-43.474617},
  {"tipo":"Gerencia","nome":"Gerência Copacabana - Parque","local":"Rua Gustavo Sampaio, nº 2 – Copacabana","latitude":-22.961443,"longitude":-43.165474},
  {"tipo":"Gerencia","nome":"Gerência Copacabana - (Posto)","local":"Rua Saint Roman, nº 46 – Copacabana","latitude":-22.980642,"longitude":-43.192932},
  {"tipo":"Gerencia","nome":"Gerência Centro - Parque","local":"Rua República do Líbano, nº 54 - Centro, CEP.: 20061-030","latitude":-22.906327,"longitude":-43.185990},
  {"tipo":"Gerencia","nome":"Gerência Campo Grande - Posto","local":"Rua Laudelino Viêira de Campos, s/nº - Cep.: 23080-290 - Campo Grande","latitude":-22.901816,"longitude":-43.566871},
  {"tipo":"Gerencia","nome":"Gerência Botafogo - Parque","local":"Rua São Clemente , n° 45 - Botafogo - Cep.: 22260-001","latitude":-22.949415,"longitude":-43.183562},
  {"tipo":"Gerencia","nome":"Gerência Barra da Tijuca - Parque","local":"Avenida Ayrton Senna n º 2001 - Barra da Tijuca, CEP.:22775-002","latitude":-22.992897,"longitude":-43.366277},
  {"tipo":"Gerencia","nome":"Gerência Bangu","local":"Rua Falcão Padilha 261 - Bangu - Cep 21.870-160","latitude":-22.873041,"longitude":-43.462420},
  {"tipo":"Gerencia","nome":"Gerência Anchieta - Escola Limpa","local":"Est. do Camboatá, 356 - Deodoro - Cep.: 21670-000","latitude":-22.851081,"longitude":-43.383412},
  {"tipo":"Gerencia","nome":"Gerência Adjunta Transoeste","local":"Estrada Teodoreto de Camargo,nº 673 - lha de Guaratiba - cep.: 23020-440","latitude":-23.009423,"longitude":-43.536753},
  {"tipo":"Gerencia","nome":"Gerência Adjunta de Operação Náutica","local":"Avenida Ministro Ivan Lins s/nº - Barra Da Tijuca","latitude":-23.008071,"longitude":-43.304279},
  {"tipo":"Gerencia","nome":"Gerência Adjunta de Limpeza Predial 7 - Palácio 450","local":"Rua Carolina Machado,920 - Oswaldo Cruz , Cep.: 21550-000","latitude":-22.870250,"longitude":-43.347612},
  {"tipo":"Gerencia","nome":"Gerência Adjunta de Limpeza Predial 2","local":"Rua Afonso Cavalcanti,455 - Cidade Nova - Cep.:20211-110","latitude":-22.910933,"longitude":-43.205598},
  {"tipo":"Gerencia","nome":"Gerência Adjunta de Limpeza Hospitalar Salgado Filho","local":"Rua Arquias Cordeiro, 370- Meier, CEP.: 20770-000","latitude":-22.900969,"longitude":-43.278320},
  {"tipo":"Gerencia","nome":"Gerência Adjunta de Limpeza Hospitalar Miguel Couto","local":"Rua Mario Ribeiro, 117 - Gávea, Rio de Janeiro - RJ, 22430-160","latitude":-22.977674,"longitude":-43.223237},
  {"tipo":"Gerencia","nome":"Gerência Adjunta de Limpeza Hospitalar Souza Aguiar","local":"Praça Da República, Nº 111- Centro - Cep.:20211-350","latitude":-22.908267,"longitude":-43.189725},
  {"tipo":"ETR","nome":"ETR MARECHAL","local":"Av. Brasil, n. 20.731 ","latitude":-22.8341073,"longitude":-43.3575039},
  {"tipo":"ETR","nome":"ETR BANGU","local":"Av. Brasil,  n. 39.900 ","latitude":-22.8604091,"longitude":-43.5350541},
  {"tipo":"ETR","nome":"ETR IRAJA","local":"Avenida Monsenhor Félix, n: 512 - Irajá","latitude":-22.8464536,"longitude":-43.3266396},
  {"tipo":"ETR","nome":"CTR SEROPEDICA","local":"Estrada Santa Rosa - Chaperó, Seropédica","latitude":-22.7998335,"longitude":-43.7599144},
  {"tipo":"ETR","nome":"ETR JPA","local":"Rua Américo de Souza Braga, n. 647","latitude":-229861859,"longitude":-43.4533242},
  {"tipo":"ETR","nome":"ETR CAJU","local":"Rua Carlos Seidl, n. 1388","latitude":-22.8804306,"longitude":-43.2275776},
  {"tipo":"ETR","nome":"ETR STA CRUZ","local":"Estrada da Pedra, n. 2.100","latitude":-22.9485852,"longitude":-43.6567654},
  {"tipo":"ETR","nome":"CTR GRAMACHO","local":"Rua Guadalupe, nº 463 Jardim Gramacho - Duque de Caxias","latitude":-22.7495107,"longitude":-43.2666191},
  {"tipo":"ETR","nome":"CTR GERICINO","local":"Estrada do Gericinó, s/nº - Gericinó ","latitude":-22.8472975,"longitude":-43.5138084}
]